{"type":"FeatureCollection","features":[{"type":"Feature","properties":{"Name":"Sir Daniel Wilson Quad","Address":"73 St. George st.","Benches":"Yes","Bike":"2 min","TTC":"N/A","marker-color":"#42e407","marker-size":"large","Walk":"4 min","Distance":350},"geometry":{"coordinates":[-79.39710115882488,43.66264007749794],"type":"Point"}},{"type":"Feature","properties":{"Name":"Philosopher's Walk","Address":"78 Queen's Park Crescent W","Benches":"yes","Walk":"11 min","Bike":"7 min","TTC":"N/A","marker-color":"#42e407","marker-size":"large","Distance":850},"geometry":{"coordinates":[-79.3949617810584,43.66569974000245],"type":"Point"}},{"type":"Feature","properties":{"Name":"Grange Park","Address":"Beverley st. & McCaul st.","Benches":"yes","Walk":"14 min","Bike":"6 min","marker-color":"#42e407","marker-size":"large","TTC":"N/A","Distance":1200},"geometry":{"coordinates":[-79.39259558354695,43.65224816970641],"type":"Point"}},{"type":"Feature","properties":{"Name":"St. Alban's Square","Address":"90 Howland Ave","Benches":"yes","Walk":"25 min","Bike":"9 min","TTC":"24 min","marker-color":"#42e407","marker-size":"large","Distance":2000},"geometry":{"coordinates":[-79.41071080473299,43.66857459017692],"type":"Point"}},{"type":"Feature","properties":{"Name":"Back campus walkway","Address":"85 St. George st.","Benches":"yes","Walk":"6 min","Bike":"2 min","TTC":"N/A","marker-color":"#42e407","marker-size":"large","Distance":500},"geometry":{"coordinates":[-79.39737166075231,43.663756102910725],"type":"Point"}},{"type":"Feature","properties":{"Name":"Toronto Music Garden","Address":"479 Queens Quay West","Benches":"yes","Walk":"40 min ","Bike":"16 min","TTC":"29 min","marker-color":"#42e407","marker-size":"large","Distance":3200},"geometry":{"coordinates":[-79.39402279423982,43.6370741305945],"type":"Point"}},{"type":"Feature","properties":{"Name":"Mount Pleasant Cemetery","Address":"375 Mt. Pleasant Rd","Benches":"yes","Walk":"1 hr 7 min","Bike":"26 min","TTC":"59 min","marker-color":"#4de407","marker-size":"large","Distance":5300},"geometry":{"coordinates":[-79.3800586147697,43.69732953283497],"type":"Point"}},{"type":"Feature","properties":{"Name":"High Park","Address":"1873 Bloor St W","Benches":"yes","Walk":"1 hr 15 min","Bike":"24 min","TTC":"57 min","marker-color":"#42e407","marker-size":"large","Distance":5900},"geometry":{"coordinates":[-79.4624823221101,43.64912952117638],"type":"Point"}},{"type":"Feature","properties":{"Name":"Tommy Thompson Park ","Address":"1 Leslie st.","Benches":"no","Walk":"1 hr 33 min","Bike":"30 min","marker-color":"#42e407","marker-size":"large","TTC":"1 hr 2 min","Distance":7500},"geometry":{"coordinates":[-79.33848911664747,43.621165829301276],"type":"Point"}},{"type":"Feature","properties":{"Name":"Rouge National Urban Park","Address":"Zoo Road","Benches":"no","Walk":"N/A","Bike":"2 hr","TTC":"2 hr","marker-color":"#42e407","marker-size":"large","Distance":33400},"geometry":{"coordinates":[-79.17011123024763,43.82476611954496],"type":"Point"}}]}